{
  "type": "FeatureCollection",
  "features": [
    {
      "type": "Feature",
      "geometry": {
        "type": "Point",
        "coordinates": [
          93.335972,
          27.241524
        ]
      },
      "properties": {
        "date": "06-06-2021",
        "name": "Leporiang Landslide"
      }
    },
    {
      "type": "Feature",
      "geometry": {
        "type": "Point",
        "coordinates": [
          95.274842,
          28.122053
        ]
      },
      "properties": {
        "date": "13-08-2021",
        "name": "Sirki Waterfall Landslide"
      }
    },
    {
      "type": "Feature",
      "geometry": {
        "type": "Point",
        "coordinates": [
          95.181389,
          28.153611
        ]
      },
      "properties": {
        "date": "27-06-2021",
        "name": "Rotlung Landslide"
      }
    },
    {
      "type": "Feature",
      "geometry": {
        "type": "Point",
        "coordinates": [
          94.748649,
          28.849609
        ]
      },
      "properties": {
        "date": "13-08-2021",
        "name": "Tuting Yingkiong_landslide"
      }
    },
    {
      "type": "Feature",
      "geometry": {
        "type": "Point",
        "coordinates": [
          94.721322,
          27.784222
        ]
      },
      "properties": {
        "date": "13-08-2021",
        "name": "Likabali Basar landslide"
      }
    },
    {
      "type": "Feature",
      "geometry": {
        "type": "Point",
        "coordinates": [
          94.842537,
          28.936253
        ]
      },
      "properties": {
        "date": "17-06-2021",
        "name": "Pekong Landslide"
      }
    },
    {
      "type": "Feature",
      "geometry": {
        "type": "Point",
        "coordinates": [
          94.467809,
          27.965813
        ]
      },
      "properties": {
        "date": "08-07-2021",
        "name": "Tode landslide"
      }
    },
    {
      "type": "Feature",
      "geometry": {
        "type": "Point",
        "coordinates": [
          93.622322,
          27.095983
        ]
      },
      "properties": {
        "date": "31-05-2021",
        "name": "IG Park Landslide"
      }
    },
    {
      "type": "Feature",
      "geometry": {
        "type": "Point",
        "coordinates": [
          92.43801,
          27.326763
        ]
      },
      "properties": {
        "date": "05-06-2021",
        "name": "BCT Road Landslide"
      }
    },
    {
      "type": "Feature",
      "geometry": {
        "type": "Point",
        "coordinates": [
          92.479767,
          27.208119
        ]
      },
      "properties": {
        "date": "25-05-2021",
        "name": "Nechipu_Saddle_landslide"
      }
    },
    {
      "type": "Feature",
      "geometry": {
        "type": "Point",
        "coordinates": [
          95.603611,
          26.911944
        ]
      },
      "properties": {
        "date": "22-06-2021",
        "name": "Kuthong Landslide"
      }
    },
    {
      "type": "Feature",
      "geometry": {
        "type": "Point",
        "coordinates": [
          95.235101,
          28.214774
        ]
      },
      "properties": {
        "date": "30-06-2021",
        "name": "Pasighat_Yingkiong_Landslide"
      }
    },
    {
      "type": "Feature",
      "geometry": {
        "type": "Point",
        "coordinates": [
          94.71335,
          27.796145
        ]
      },
      "properties": {
        "date": "30-06-2021",
        "name": "Garu Landslide"
      }
    },
    {
      "type": "Feature",
      "geometry": {
        "type": "Point",
        "coordinates": [
          92.303984,
          27.186597
        ]
      },
      "properties": {
        "date": "28-04-2021",
        "name": "Membachur Garbow landslide"
      }
    },
    {
      "type": "Feature",
      "geometry": {
        "type": "Point",
        "coordinates": [
          94.9963,
          28.233722
        ]
      },
      "properties": {
        "date": "27-06-2021",
        "name": "Sangam bridge_collapse"
      }
    },
    {
      "type": "Feature",
      "geometry": {
        "type": "Point",
        "coordinates": [
          94.073954,
          27.794025
        ]
      },
      "properties": {
        "date": "09-09-2021",
        "name": "Raga landslide"
      }
    },
    {
      "type": "Feature",
      "geometry": {
        "type": "Point",
        "coordinates": [
          92.566072,
          27.104442
        ]
      },
      "properties": {
        "date": "20-09-2021",
        "name": "20 landslides BCT road"
      }
    },
    {
      "type": "Feature",
      "geometry": {
        "type": "Point",
        "coordinates": [
          91.694636,
          26.162784
        ]
      },
      "properties": {
        "date": "18-06-2021",
        "name": "Water works_colony_landslide"
      }
    },
    {
      "type": "Feature",
      "geometry": {
        "type": "Point",
        "coordinates": [
          93.110996,
          26.574761
        ]
      },
      "properties": {
        "date": "25-08-2021",
        "name": "Burapahar Landslide"
      }
    },
    {
      "type": "Feature",
      "geometry": {
        "type": "Point",
        "coordinates": [
          91.690161,
          26.170251
        ]
      },
      "properties": {
        "date": "20-10-2021",
        "name": "Pandu landslide"
      }
    },
    {
      "type": "Feature",
      "geometry": {
        "type": "Point",
        "coordinates": [
          91.810523,
          26.154238
        ]
      },
      "properties": {
        "date": "06-08-2021",
        "name": "Borabari landslide"
      }
    },
    {
      "type": "Feature",
      "geometry": {
        "type": "Point",
        "coordinates": [
          93.820138,
          25.217562
        ]
      },
      "properties": {
        "date": "06-06-2021",
        "name": "Tujang Waichong_landslide"
      }
    },
    {
      "type": "Feature",
      "geometry": {
        "type": "Point",
        "coordinates": [
          93.509375,
          24.503658
        ]
      },
      "properties": {
        "date": "20-08-2021",
        "name": "S_kholep_landslide"
      }
    },
    {
      "type": "Feature",
      "geometry": {
        "type": "Point",
        "coordinates": [
          93.677995,
          25.158298
        ]
      },
      "properties": {
        "date": "24-06-2021",
        "name": "Tamel landslide"
      }
    },
    {
      "type": "Feature",
      "geometry": {
        "type": "Point",
        "coordinates": [
          93.857702,
          25.241119
        ]
      },
      "properties": {
        "date": "02-08-2021",
        "name": "Lamlenkon landslide"
      }
    },
    {
      "type": "Feature",
      "geometry": {
        "type": "Point",
        "coordinates": [
          93.56119,
          24.826041
        ]
      },
      "properties": {
        "date": "16-08-2021",
        "name": "Awang khul landslide"
      }
    },
    {
      "type": "Feature",
      "geometry": {
        "type": "Point",
        "coordinates": [
          93.677995,
          25.158298
        ]
      },
      "properties": {
        "date": "07-06-2021",
        "name": "Tamei2 landslide"
      }
    },
    {
      "type": "Feature",
      "geometry": {
        "type": "Point",
        "coordinates": [
          94.160246,
          24.319566
        ]
      },
      "properties": {
        "date": "26-07-2021",
        "name": "Chahmol landslide"
      }
    },
    {
      "type": "Feature",
      "geometry": {
        "type": "Point",
        "coordinates": [
          93.440246,
          24.818353
        ]
      },
      "properties": {
        "date": "19-07-2021",
        "name": "Thingou landslide"
      }
    },
    {
      "type": "Feature",
      "geometry": {
        "type": "Point",
        "coordinates": [
          94.358421,
          25.091769
        ]
      },
      "properties": {
        "date": "16-06-2021",
        "name": "Mini Secretariat landiside"
      }
    },
    {
      "type": "Feature",
      "geometry": {
        "type": "Point",
        "coordinates": [
          93.332535,
          24.767366
        ]
      },
      "properties": {
        "date": "19-07-2021",
        "name": "Sibilong temple landslide"
      }
    },
    {
      "type": "Feature",
      "geometry": {
        "type": "Point",
        "coordinates": [
          93.915829,
          24.005219
        ]
      },
      "properties": {
        "date": "09-10-2021",
        "name": "Khulmulen-Sajik landslide"
      }
    },
    {
      "type": "Feature",
      "geometry": {
        "type": "Point",
        "coordinates": [
          91.86466,
          25.585545
        ]
      },
      "properties": {
        "date": "24-02-2021",
        "name": "Sonapani landslide"
      }
    },
    {
      "type": "Feature",
      "geometry": {
        "type": "Point",
        "coordinates": [
          90.214668,
          25.499358
        ]
      },
      "properties": {
        "date": "30-06-2021",
        "name": "Tura dalu stretch"
      }
    },
    {
      "type": "Feature",
      "geometry": {
        "type": "Point",
        "coordinates": [
          92.362063,
          25.081742
        ]
      },
      "properties": {
        "date": "02-08-2021",
        "name": "Kuliang landslide"
      }
    },
    {
      "type": "Feature",
      "geometry": {
        "type": "Point",
        "coordinates": [
          90.831915,
          25.202693
        ]
      },
      "properties": {
        "date": "30-06-2021",
        "name": "Malikona_Village_landslide"
      }
    },
    {
      "type": "Feature",
      "geometry": {
        "type": "Point",
        "coordinates": [
          92.761693,
          22.130154
        ]
      },
      "properties": {
        "date": "26-08-2021",
        "name": "Zochachhuah landslide"
      }
    },
    {
      "type": "Feature",
      "geometry": {
        "type": "Point",
        "coordinates": [
          92.816565,
          22.805047
        ]
      },
      "properties": {
        "date": "19-07-2021",
        "name": "Bualtei landslide"
      }
    },
    {
      "type": "Feature",
      "geometry": {
        "type": "Point",
        "coordinates": [
          92.741738,
          23.74192
        ]
      },
      "properties": {
        "date": "11-06-2021",
        "name": "Thuampui landslide"
      }
    },
    {
      "type": "Feature",
      "geometry": {
        "type": "Point",
        "coordinates": [
          92.859428,
          23.689863
        ]
      },
      "properties": {
        "date": "09-10-2021",
        "name": "Thingsulthliah landslide"
      }
    },
    {
      "type": "Feature",
      "geometry": {
        "type": "Point",
        "coordinates": [
          93.805655,
          25.793499
        ]
      },
      "properties": {
        "date": "02-02-2021",
        "name": "TL Park landslide"
      }
    },
    {
      "type": "Feature",
      "geometry": {
        "type": "Point",
        "coordinates": [
          94.254627,
          26.092899
        ]
      },
      "properties": {
        "date": "06-08-2021",
        "name": "Lower Etsuchuka Colony landslide"
      }
    },
    {
      "type": "Feature",
      "geometry": {
        "type": "Point",
        "coordinates": [
          93.806,
          25.772599
        ]
      },
      "properties": {
        "date": "17-02-2021",
        "name": "TL Park 2 landslide"
      }
    },
    {
      "type": "Feature",
      "geometry": {
        "type": "Point",
        "coordinates": [
          94.767115,
          26.046657
        ]
      },
      "properties": {
        "date": "20-07-2021",
        "name": "Wangshu_PwD Road_landslide"
      }
    },
    {
      "type": "Feature",
      "geometry": {
        "type": "Point",
        "coordinates": [
          94.438812,
          25.657788
        ]
      },
      "properties": {
        "date": "12-07-2021",
        "name": "Losami Phek landslide"
      }
    },
    {
      "type": "Feature",
      "geometry": {
        "type": "Point",
        "coordinates": [
          94.254289,
          26.096249
        ]
      },
      "properties": {
        "date": "06-08-2021",
        "name": "Police Point landslide"
      }
    },
    {
      "type": "Feature",
      "geometry": {
        "type": "Point",
        "coordinates": [
          94.246956,
          26.091211
        ]
      },
      "properties": {
        "date": "06-08-2021",
        "name": "Airfield colony landslide"
      }
    },
    {
      "type": "Feature",
      "geometry": {
        "type": "Point",
        "coordinates": [
          94.221938,
          26.208542
        ]
      },
      "properties": {
        "date": "05-08-2021",
        "name": "Sanis Doyarig_landslide"
      }
    },
    {
      "type": "Feature",
      "geometry": {
        "type": "Point",
        "coordinates": [
          93.940678,
          25.766187
        ]
      },
      "properties": {
        "date": "10-05-2021",
        "name": "Piphema landslide"
      }
    },
    {
      "type": "Feature",
      "geometry": {
        "type": "Point",
        "coordinates": [
          94.863047,
          25.7623
        ]
      },
      "properties": {
        "date": "17-08-2021",
        "name": "Pungro-Mimi landslide"
      }
    },
    {
      "type": "Feature",
      "geometry": {
        "type": "Point",
        "coordinates": [
          94.686755,
          25.603106
        ]
      },
      "properties": {
        "date": "14-07-2021",
        "name": "Phek landslide"
      }
    },
    {
      "type": "Feature",
      "geometry": {
        "type": "Point",
        "coordinates": [
          94.409427,
          25.659725
        ]
      },
      "properties": {
        "date": "31-07-2021",
        "name": "Pfutsero-Khomi-Phek landslide"
      }
    },
    {
      "type": "Feature",
      "geometry": {
        "type": "Point",
        "coordinates": [
          94.402948,
          25.723469
        ]
      },
      "properties": {
        "date": "31-07-2021",
        "name": "Pfutsero-Lanye Landslide"
      }
    },
    {
      "type": "Feature",
      "geometry": {
        "type": "Point",
        "coordinates": [
          95.061502,
          26.250081
        ]
      },
      "properties": {
        "date": "08-11-2021",
        "name": "Wensoi Landslide"
      }
    },
    {
      "type": "Feature",
      "geometry": {
        "type": "Point",
        "coordinates": [
          94.939423,
          26.232589
        ]
      },
      "properties": {
        "date": "09-09-2021",
        "name": "Chedang Saddle Landslide"
      }
    },
    {
      "type": "Feature",
      "geometry": {
        "type": "Point",
        "coordinates": [
          88.614992,
          27.250224
        ]
      },
      "properties": {
        "date": "24-08-2021",
        "name": "Samsing Shanti Turn Landslide"
      }
    },
    {
      "type": "Feature",
      "geometry": {
        "type": "Point",
        "coordinates": [
          88.152087,
          27.1624
        ]
      },
      "properties": {
        "date": "24-08-2021",
        "name": "Muneew Tareybhir Landslide"
      }
    },
    {
      "type": "Feature",
      "geometry": {
        "type": "Point",
        "coordinates": [
          88.45744,
          27.090965
        ]
      },
      "properties": {
        "date": "29-07-2021",
        "name": "Melli Secondary School Landslide"
      }
    },
    {
      "type": "Feature",
      "geometry": {
        "type": "Point",
        "coordinates": [
          88.456816,
          27.090724
        ]
      },
      "properties": {
        "date": "30-07-2021",
        "name": "Melli Bazaar Landslide"
      }
    },
    {
      "type": "Feature",
      "geometry": {
        "type": "Point",
        "coordinates": [
          88.531935,
          27.142902
        ]
      },
      "properties": {
        "date": "30-07-2021",
        "name": "Mamkhola Landslide"
      }
    },
    {
      "type": "Feature",
      "geometry": {
        "type": "Point",
        "coordinates": [
          88.466754,
          27.10871
        ]
      },
      "properties": {
        "date": "30-07-2021",
        "name": "Melli 2 Landslide"
      }
    },
    {
      "type": "Feature",
      "geometry": {
        "type": "Point",
        "coordinates": [
          88.325929,
          27.111336
        ]
      },
      "properties": {
        "date": "30-07-2021",
        "name": "Melli Jorethang_landslide"
      }
    },
    {
      "type": "Feature",
      "geometry": {
        "type": "Point",
        "coordinates": [
          88.609439,
          27.32459
        ]
      },
      "properties": {
        "date": "20-10-2021",
        "name": "Pani House Landslide"
      }
    },
    {
      "type": "Feature",
      "geometry": {
        "type": "Point",
        "coordinates": [
          88.464695,
          27.09117
        ]
      },
      "properties": {
        "date": "18-06-2021",
        "name": "Bhalukhola landslide"
      }
    },
    {
      "type": "Feature",
      "geometry": {
        "type": "Point",
        "coordinates": [
          88.728341,
          27.376583
        ]
      },
      "properties": {
        "date": "25-03-2021",
        "name": "Kyonsola waterfall landslide"
      }
    },
    {
      "type": "Feature",
      "geometry": {
        "type": "Point",
        "coordinates": [
          88.597286,
          27.255462
        ]
      },
      "properties": {
        "date": "08-08-2021",
        "name": "Basilakha landslide"
      }
    },
    {
      "type": "Feature",
      "geometry": {
        "type": "Point",
        "coordinates": [
          88.487805,
          27.366542
        ]
      },
      "properties": {
        "date": "31-07-2021",
        "name": "Seley Ward landslide"
      }
    },
    {
      "type": "Feature",
      "geometry": {
        "type": "Point",
        "coordinates": [
          88.441413,
          26.939387
        ]
      },
      "properties": {
        "date": "31-07-2021",
        "name": "Seti Jhora Landslide"
      }
    },
    {
      "type": "Feature",
      "geometry": {
        "type": "Point",
        "coordinates": [
          88.280411,
          27.146369
        ]
      },
      "properties": {
        "date": "30-07-2021",
        "name": "Sisney Landslide"
      }
    },
    {
      "type": "Feature",
      "geometry": {
        "type": "Point",
        "coordinates": [
          88.307456,
          27.221268
        ]
      },
      "properties": {
        "date": "27-08-2021",
        "name": "Jorethang-Legship Landslide"
      }
    },
    {
      "type": "Feature",
      "geometry": {
        "type": "Point",
        "coordinates": [
          88.61023,
          27.326815
        ]
      },
      "properties": {
        "date": "01-06-2021",
        "name": "Seesa Golai Landslide"
      }
    },
    {
      "type": "Feature",
      "geometry": {
        "type": "Point",
        "coordinates": [
          88.608275,
          27.343272
        ]
      },
      "properties": {
        "date": "09-06-2021",
        "name": "Tashi Namgyal Secondary School Landslide"
      }
    },
    {
      "type": "Feature",
      "geometry": {
        "type": "Point",
        "coordinates": [
          88.158235,
          27.276428
        ]
      },
      "properties": {
        "date": "29-08-2021",
        "name": "Bongten-Changay Landslide"
      }
    },
    {
      "type": "Feature",
      "geometry": {
        "type": "Point",
        "coordinates": [
          91.480725,
          23.2463
        ]
      },
      "properties": {
        "date": "26-08-2021",
        "name": "Sarsima Landiside"
      }
    },
    {
      "type": "Feature",
      "geometry": {
        "type": "Point",
        "coordinates": [
          91.494288,
          23.228158
        ]
      },
      "properties": {
        "date": "26-08-2021",
        "name": "Jharjhari landslide"
      }
    },
    {
      "type": "Feature",
      "geometry": {
        "type": "Point",
        "coordinates": [
          92.3835,
          25.300713
        ]
      },
      "properties": {
        "date": "2022-04-13",
        "name": "Byndihati-Umtyra_Road_Creep"
      }
    },
    {
      "type": "Feature",
      "geometry": {
        "type": "Point",
        "coordinates": [
          92.386284,
          25.299032
        ]
      },
      "properties": {
        "date": "2022-04-13",
        "name": "Byndihati-Umtyra_1"
      }
    },
    {
      "type": "Feature",
      "geometry": {
        "type": "Point",
        "coordinates": [
          92.38648,
          25.298933
        ]
      },
      "properties": {
        "date": "2022-04-13",
        "name": "Byndihati-Umtyra_2"
      }
    },
    {
      "type": "Feature",
      "geometry": {
        "type": "Point",
        "coordinates": [
          92.386894,
          25.29857
        ]
      },
      "properties": {
        "date": "2022-04-13",
        "name": "Byndihati-Umtyra_3"
      }
    },
    {
      "type": "Feature",
      "geometry": {
        "type": "Point",
        "coordinates": [
          92.386955,
          25.29842
        ]
      },
      "properties": {
        "date": "2022-04-13",
        "name": "Byndihati-Umtyra_4"
      }
    },
    {
      "type": "Feature",
      "geometry": {
        "type": "Point",
        "coordinates": [
          92.386986,
          25.298416
        ]
      },
      "properties": {
        "date": "2022-04-13",
        "name": "Byndihati-Umtyra_5"
      }
    },
    {
      "type": "Feature",
      "geometry": {
        "type": "Point",
        "coordinates": [
          92.386986,
          25.298306
        ]
      },
      "properties": {
        "date": "2022-04-13",
        "name": "Byndihati-Umtyra_6"
      }
    },
    {
      "type": "Feature",
      "geometry": {
        "type": "Point",
        "coordinates": [
          92.38725,
          25.297895
        ]
      },
      "properties": {
        "date": "2022-04-13",
        "name": "Byndihati-Umtyra_7"
      }
    },
    {
      "type": "Feature",
      "geometry": {
        "type": "Point",
        "coordinates": [
          92.38736,
          25.297684
        ]
      },
      "properties": {
        "date": "2022-04-13",
        "name": "Byndihati-Umtyra_8"
      }
    },
    {
      "type": "Feature",
      "geometry": {
        "type": "Point",
        "coordinates": [
          92.38735,
          25.297401
        ]
      },
      "properties": {
        "date": "2022-04-13",
        "name": "Byndihati-Umtyra_9"
      }
    },
    {
      "type": "Feature",
      "geometry": {
        "type": "Point",
        "coordinates": [
          92.38551,
          25.259485
        ]
      },
      "properties": {
        "date": "2022-04-13",
        "name": "Nongsning_12"
      }
    },
    {
      "type": "Feature",
      "geometry": {
        "type": "Point",
        "coordinates": [
          92.3757,
          25.242348
        ]
      },
      "properties": {
        "date": "2022-04-13",
        "name": "Shiehruphi_1"
      }
    },
    {
      "type": "Feature",
      "geometry": {
        "type": "Point",
        "coordinates": [
          92.37896,
          25.220339
        ]
      },
      "properties": {
        "date": "2022-04-13",
        "name": "Thangskai_1"
      }
    },
    {
      "type": "Feature",
      "geometry": {
        "type": "Point",
        "coordinates": [
          92.36781,
          25.150444
        ]
      },
      "properties": {
        "date": "2022-04-13",
        "name": "Umlaper_tea_stall_1"
      }
    },
    {
      "type": "Feature",
      "geometry": {
        "type": "Point",
        "coordinates": [
          92.37676,
          25.147703
        ]
      },
      "properties": {
        "date": "2022-04-13",
        "name": "Tongseng1"
      }
    },
    {
      "type": "Feature",
      "geometry": {
        "type": "Point",
        "coordinates": [
          92.373055,
          25.143984
        ]
      },
      "properties": {
        "date": "2022-04-13",
        "name": "Tongseng2"
      }
    },
    {
      "type": "Feature",
      "geometry": {
        "type": "Point",
        "coordinates": [
          92.37366,
          25.1438
        ]
      },
      "properties": {
        "date": "2022-04-13",
        "name": "Tongseng3"
      }
    },
    {
      "type": "Feature",
      "geometry": {
        "type": "Point",
        "coordinates": [
          92.37443,
          25.144033
        ]
      },
      "properties": {
        "date": "2022-04-13",
        "name": "Tongseng4"
      }
    },
    {
      "type": "Feature",
      "geometry": {
        "type": "Point",
        "coordinates": [
          92.379005,
          25.14076
        ]
      },
      "properties": {
        "date": "2022-04-13",
        "name": "HP_petrol_pump_tongseng_1"
      }
    },
    {
      "type": "Feature",
      "geometry": {
        "type": "Point",
        "coordinates": [
          92.37903,
          25.140772
        ]
      },
      "properties": {
        "date": "2022-04-13",
        "name": "HP_petrol_pump_tongseng_2"
      }
    },
    {
      "type": "Feature",
      "geometry": {
        "type": "Point",
        "coordinates": [
          92.37898,
          25.140808
        ]
      },
      "properties": {
        "date": "2022-04-13",
        "name": "HP_petrol_pump_tongseng_3"
      }
    },
    {
      "type": "Feature",
      "geometry": {
        "type": "Point",
        "coordinates": [
          92.388245,
          25.129538
        ]
      },
      "properties": {
        "date": "2022-04-13",
        "name": "3km_before_sonapur_1"
      }
    },
    {
      "type": "Feature",
      "geometry": {
        "type": "Point",
        "coordinates": [
          92.38578,
          25.12547
        ]
      },
      "properties": {
        "date": "2022-04-13",
        "name": "Before_Sonapur2"
      }
    },
    {
      "type": "Feature",
      "geometry": {
        "type": "Point",
        "coordinates": [
          92.37368,
          25.113762
        ]
      },
      "properties": {
        "date": "2022-04-13",
        "name": "Before_Sonapur3"
      }
    },
    {
      "type": "Feature",
      "geometry": {
        "type": "Point",
        "coordinates": [
          92.410835,
          25.045042
        ]
      },
      "properties": {
        "date": "2022-04-13",
        "name": "Donsakul 1"
      }
    },
    {
      "type": "Feature",
      "geometry": {
        "type": "Point",
        "coordinates": [
          92.43025,
          25.044744
        ]
      },
      "properties": {
        "date": "2022-04-13",
        "name": "Ratacherra 1"
      }
    },
    {
      "type": "Feature",
      "geometry": {
        "type": "Point",
        "coordinates": [
          90.060165,
          25.389677
        ]
      },
      "properties": {
        "date": "2022-06-09",
        "name": "Jebalgre_landslide"
      }
    },
    {
      "type": "Feature",
      "geometry": {
        "type": "Point",
        "coordinates": [
          89.951546,
          25.507116
        ]
      },
      "properties": {
        "date": "2022-06-09",
        "name": "Betasingh_landslide"
      }
    },
    {
      "type": "Feature",
      "geometry": {
        "type": "Point",
        "coordinates": [
          92.37444,
          25.18166
        ]
      },
      "properties": {
        "date": "2020-06-16",
        "name": "Lumshnong_landslide"
      }
    },
    {
      "type": "Feature",
      "geometry": {
        "type": "Point",
        "coordinates": [
          91.57084,
          25.44632
        ]
      },
      "properties": {
        "date": "2022-06-16",
        "name": "Laitlarem landslide"
      }
    },
    {
      "type": "Feature",
      "geometry": {
        "type": "Point",
        "coordinates": [
          92.02121,
          25.206291
        ]
      },
      "properties": {
        "date": "2022-06-17",
        "name": "Darrang_landslide"
      }
    },
    {
      "type": "Feature",
      "geometry": {
        "type": "Point",
        "coordinates": [
          90.03326,
          25.459652
        ]
      },
      "properties": {
        "date": "2022-06-17",
        "name": "Bolsalgre_landslide"
      }
    },
    {
      "type": "Feature",
      "geometry": {
        "type": "Point",
        "coordinates": [
          90.68374,
          25.351841
        ]
      },
      "properties": {
        "date": "2022-06-17",
        "name": "Siju_landslide"
      }
    },
    {
      "type": "Feature",
      "geometry": {
        "type": "Point",
        "coordinates": [
          93.6878,
          27.112083
        ]
      },
      "properties": {
        "date": "2022-06-19",
        "name": "Sood_landslide"
      }
    },
    {
      "type": "Feature",
      "geometry": {
        "type": "Point",
        "coordinates": [
          93.62141,
          27.095318
        ]
      },
      "properties": {
        "date": "2022-05-16",
        "name": "Punjabi_dhabha_landslide"
      }
    },
    {
      "type": "Feature",
      "geometry": {
        "type": "Point",
        "coordinates": [
          93.61592,
          27.079184
        ]
      },
      "properties": {
        "date": "2022-05-16",
        "name": "Ganga_Jully_basti_road"
      }
    },
    {
      "type": "Feature",
      "geometry": {
        "type": "Point",
        "coordinates": [
          93.650566,
          27.107346
        ]
      },
      "properties": {
        "date": "2022-06-19",
        "name": "Modirijo landslide"
      }
    },
    {
      "type": "Feature",
      "geometry": {
        "type": "Point",
        "coordinates": [
          93.27676,
          27.856197
        ]
      },
      "properties": {
        "date": "2022-04-19",
        "name": "Sulung_tapin_landslide"
      }
    },
    {
      "type": "Feature",
      "geometry": {
        "type": "Point",
        "coordinates": [
          93.6709,
          24.80265
        ]
      },
      "properties": {
        "date": "2022-06-30",
        "name": "Tupul_yard_landslide"
      }
    },
    {
      "type": "Feature",
      "geometry": {
        "type": "Point",
        "coordinates": [
          92.84086,
          22.690073
        ]
      },
      "properties": {
        "date": "2022-06-19",
        "name": "Tawipui_road"
      }
    },
    {
      "type": "Feature",
      "geometry": {
        "type": "Point",
        "coordinates": [
          88.695972,
          27.830094
        ]
      },
      "properties": {
        "date": "2022-08-31",
        "name": "Poom_landslide"
      }
    },
    {
      "type": "Feature",
      "geometry": {
        "type": "Point",
        "coordinates": [
          88.395556,
          27.296944
        ]
      },
      "properties": {
        "date": "2022-11-04",
        "name": "Yangang Landslide"
      }
    },
    {
      "type": "Feature",
      "geometry": {
        "type": "Point",
        "coordinates": [
          95.7776,
          28.2333
        ]
      },
      "properties": {
        "date": "2023-02-24",
        "name": "Roing Anini"
      }
    },
    {
      "type": "Feature",
      "geometry": {
        "type": "Point",
        "coordinates": [
          94.86047758,
          28.78213823
        ]
      },
      "properties": {
        "date": "2023-03-24",
        "name": "Tuting Landslide"
      }
    },
    {
      "type": "Feature",
      "geometry": {
        "type": "Point",
        "coordinates": [
          94.77570872,
          28.79895656
        ]
      },
      "properties": {
        "date": "2023-05-05",
        "name": "Mossing Landslide"
      }
    },
    {
      "type": "Feature",
      "geometry": {
        "type": "Point",
        "coordinates": [
          93.43502779,
          27.89451833
        ]
      },
      "properties": {
        "date": "2023-05-06",
        "name": "Kurung 1"
      }
    },
    {
      "type": "Feature",
      "geometry": {
        "type": "Point",
        "coordinates": [
          93.42410335,
          27.8964705
        ]
      },
      "properties": {
        "date": "2023-05-06",
        "name": "Kurung 2"
      }
    },
    {
      "type": "Feature",
      "geometry": {
        "type": "Point",
        "coordinates": [
          92.610166,
          27.026924
        ]
      },
      "properties": {
        "date": "2023-06-12",
        "name": "Tippi Landslide"
      }
    },
    {
      "type": "Feature",
      "geometry": {
        "type": "Point",
        "coordinates": [
          93.828636,
          27.095932
        ]
      },
      "properties": {
        "date": "2023-06-23",
        "name": "Karsingsa Landslide"
      }
    },
    {
      "type": "Feature",
      "geometry": {
        "type": "Point",
        "coordinates": [
          93.671454,
          27.101535
        ]
      },
      "properties": {
        "date": "2023-06-23",
        "name": "Puroik Landslide"
      }
    },
    {
      "type": "Feature",
      "geometry": {
        "type": "Point",
        "coordinates": [
          92.525162,
          27.10699
        ]
      },
      "properties": {
        "date": "2023-06-23",
        "name": "Sessa Landslide"
      }
    },
    {
      "type": "Feature",
      "geometry": {
        "type": "Point",
        "coordinates": [
          94.930641,
          28.233721
        ]
      },
      "properties": {
        "date": "2023-06-23",
        "name": "Pangin Landslide"
      }
    },
    {
      "type": "Feature",
      "geometry": {
        "type": "Point",
        "coordinates": [
          95.282822,
          28.095267
        ]
      },
      "properties": {
        "date": "2023-07-16",
        "name": "Pangin Landslide"
      }
    },
    {
      "type": "Feature",
      "geometry": {
        "type": "Point",
        "coordinates": [
          94.144356,
          28.235584
        ]
      },
      "properties": {
        "date": "2023-07-28",
        "name": "Taliha Landslide"
      }
    },
    {
      "type": "Feature",
      "geometry": {
        "type": "Point",
        "coordinates": [
          95.269295,
          28.14251
        ]
      },
      "properties": {
        "date": "2023-07-28",
        "name": "NH 13, Pangin Landslide"
      }
    },
    {
      "type": "Feature",
      "geometry": {
        "type": "Point",
        "coordinates": [
          94.697075,
          27.717104
        ]
      },
      "properties": {
        "date": "2023-08-18",
        "name": "Siji Landslide"
      }
    },
    {
      "type": "Feature",
      "geometry": {
        "type": "Point",
        "coordinates": [
          92.547048,
          27.204944
        ]
      },
      "properties": {
        "date": "2023-08-27",
        "name": "Nag Mandir Landslide"
      }
    },
    {
      "type": "Feature",
      "geometry": {
        "type": "Point",
        "coordinates": [
          92.38797,
          27.203191
        ]
      },
      "properties": {
        "date": "2023-08-27",
        "name": "Rupa Landslide"
      }
    },
    {
      "type": "Feature",
      "geometry": {
        "type": "Point",
        "coordinates": [
          92.136539,
          27.057521
        ]
      },
      "properties": {
        "date": "2023-08-27",
        "name": "Dengzi Landslide"
      }
    },
    {
      "type": "Feature",
      "geometry": {
        "type": "Point",
        "coordinates": [
          92.218027,
          27.09638
        ]
      },
      "properties": {
        "date": "2023-08-27",
        "name": "Tenzin Landslide"
      }
    },
    {
      "type": "Feature",
      "geometry": {
        "type": "Point",
        "coordinates": [
          94.258982,
          27.552115
        ]
      },
      "properties": {
        "date": "2023-10-27",
        "name": "Subansiri Landslide"
      }
    },
    {
      "type": "Feature",
      "geometry": {
        "type": "Point",
        "coordinates": [
          93.76566,
          25.529813
        ]
      },
      "properties": {
        "date": "2023-07-10",
        "name": "Iron Bridge Landslide"
      }
    },
    {
      "type": "Feature",
      "geometry": {
        "type": "Point",
        "coordinates": [
          94.85535,
          25.994082
        ]
      },
      "properties": {
        "date": "2023-07-16",
        "name": "Kiphire Landslide"
      }
    },
    {
      "type": "Feature",
      "geometry": {
        "type": "Point",
        "coordinates": [
          94.047805,
          25.709988
        ]
      },
      "properties": {
        "date": "2023-07-17",
        "name": "Meriema Landslide"
      }
    },
    {
      "type": "Feature",
      "geometry": {
        "type": "Point",
        "coordinates": [
          94.784753,
          25.876143
        ]
      },
      "properties": {
        "date": "2023-08-09",
        "name": "Kiphire Town Landslide"
      }
    },
    {
      "type": "Feature",
      "geometry": {
        "type": "Point",
        "coordinates": [
          94.906812,
          25.708869
        ]
      },
      "properties": {
        "date": "2023-08-25",
        "name": "Mimi Landslide"
      }
    },
    {
      "type": "Feature",
      "geometry": {
        "type": "Point",
        "coordinates": [
          94.51346,
          26.653847
        ]
      },
      "properties": {
        "date": "2023-08-27",
        "name": "Noklangsangba Landslide"
      }
    },
    {
      "type": "Feature",
      "geometry": {
        "type": "Point",
        "coordinates": [
          93.797729,
          25.798326
        ]
      },
      "properties": {
        "date": "2023-07-04",
        "name": "Pakala Pahar Landslide"
      }
    },
    {
      "type": "Feature",
      "geometry": {
        "type": "Point",
        "coordinates": [
          95.080945,
          26.106224
        ]
      },
      "properties": {
        "date": "2023-07-09",
        "name": "Choklangan Landslide"
      }
    },
    {
      "type": "Feature",
      "geometry": {
        "type": "Point",
        "coordinates": [
          95.020282,
          26.197297
        ]
      },
      "properties": {
        "date": "2023-07-09",
        "name": "Wonthai Landslide"
      }
    },
    {
      "type": "Feature",
      "geometry": {
        "type": "Point",
        "coordinates": [
          95.015413,
          26.199008
        ]
      },
      "properties": {
        "date": "2023-07-09",
        "name": "Ehoukeh King Landslide"
      }
    },
    {
      "type": "Feature",
      "geometry": {
        "type": "Point",
        "coordinates": [
          93.204533,
          23.491709
        ]
      },
      "properties": {
        "date": "2023-01-26",
        "name": "Hermon Veng Landslide"
      }
    },
    {
      "type": "Feature",
      "geometry": {
        "type": "Point",
        "coordinates": [
          92.714248,
          23.745055
        ]
      },
      "properties": {
        "date": "2023-06-16",
        "name": "Hunthar Landslide"
      }
    },
    {
      "type": "Feature",
      "geometry": {
        "type": "Point",
        "coordinates": [
          92.71425,
          23.74506
        ]
      },
      "properties": {
        "date": "2023-07-04",
        "name": "Hunthar Landslide"
      }
    },
    {
      "type": "Feature",
      "geometry": {
        "type": "Point",
        "coordinates": [
          92.708782,
          23.742421
        ]
      },
      "properties": {
        "date": "2023-07-27",
        "name": "Vaivakawn Landslide"
      }
    },
    {
      "type": "Feature",
      "geometry": {
        "type": "Point",
        "coordinates": [
          92.889308,
          22.518533
        ]
      },
      "properties": {
        "date": "2023-08-08",
        "name": "Lawngtlai Landslide"
      }
    },
    {
      "type": "Feature",
      "geometry": {
        "type": "Point",
        "coordinates": [
          92.760969,
          22.880829
        ]
      },
      "properties": {
        "date": "2023-08-08",
        "name": "Lunglei Landslide"
      }
    },
    {
      "type": "Feature",
      "geometry": {
        "type": "Point",
        "coordinates": [
          92.713846,
          23.745833
        ]
      },
      "properties": {
        "date": "2023-08-09",
        "name": "Hunthar Landslide"
      }
    },
    {
      "type": "Feature",
      "geometry": {
        "type": "Point",
        "coordinates": [
          92.91265,
          23.233976
        ]
      },
      "properties": {
        "date": "2023-09-11",
        "name": "Keitum Landslide"
      }
    },
    {
      "type": "Feature",
      "geometry": {
        "type": "Point",
        "coordinates": [
          91.876558,
          25.371447
        ]
      },
      "properties": {
        "date": "2023-04-14",
        "name": "Rngain Landslide"
      }
    },
    {
      "type": "Feature",
      "geometry": {
        "type": "Point",
        "coordinates": [
          90.202987,
          25.515019
        ]
      },
      "properties": {
        "date": "2023-05-06",
        "name": "Tura Civil Hospital Landslide"
      }
    },
    {
      "type": "Feature",
      "geometry": {
        "type": "Point",
        "coordinates": [
          92.36018,
          25.105844
        ]
      },
      "properties": {
        "date": "2023-05-27",
        "name": "Sonapur Tunnel Landslide"
      }
    },
    {
      "type": "Feature",
      "geometry": {
        "type": "Point",
        "coordinates": [
          92.360242,
          25.105931
        ]
      },
      "properties": {
        "date": "2023-04-05",
        "name": "Sonapur Tunnel Landslide"
      }
    },
    {
      "type": "Feature",
      "geometry": {
        "type": "Point",
        "coordinates": [
          92.360245,
          25.105937
        ]
      },
      "properties": {
        "date": "2023-06-10",
        "name": "Sonapur Tunnel Landslide"
      }
    },
    {
      "type": "Feature",
      "geometry": {
        "type": "Point",
        "coordinates": [
          92.360255,
          25.10594
        ]
      },
      "properties": {
        "date": "2023-06-14",
        "name": "Sonapur Tunnel Landslide"
      }
    },
    {
      "type": "Feature",
      "geometry": {
        "type": "Point",
        "coordinates": [
          91.902608,
          25.309601
        ]
      },
      "properties": {
        "date": "2023-06-11",
        "name": "Pynursla Landslide"
      }
    },
    {
      "type": "Feature",
      "geometry": {
        "type": "Point",
        "coordinates": [
          92.360259,
          25.105945
        ]
      },
      "properties": {
        "date": "2023-06-15",
        "name": "Sonapur Tunnel Landslide"
      }
    },
    {
      "type": "Feature",
      "geometry": {
        "type": "Point",
        "coordinates": [
          91.876551,
          25.371452
        ]
      },
      "properties": {
        "date": "2023-06-14",
        "name": "Rngain Landslide"
      }
    },
    {
      "type": "Feature",
      "geometry": {
        "type": "Point",
        "coordinates": [
          91.366042,
          25.275153
        ]
      },
      "properties": {
        "date": "2023-06-17",
        "name": "Dommawlein Landslide"
      }
    },
    {
      "type": "Feature",
      "geometry": {
        "type": "Point",
        "coordinates": [
          91.57097,
          25.446165
        ]
      },
      "properties": {
        "date": "2023-06-17",
        "name": "Laitlarem Landslide"
      }
    },
    {
      "type": "Feature",
      "geometry": {
        "type": "Point",
        "coordinates": [
          92.020892,
          25.205927
        ]
      },
      "properties": {
        "date": "2023-06-17",
        "name": "Darrang Landslide"
      }
    },
    {
      "type": "Feature",
      "geometry": {
        "type": "Point",
        "coordinates": [
          92.3603,
          25.10595
        ]
      },
      "properties": {
        "date": "2023-06-19",
        "name": "Sonapur Tunnel Landslide"
      }
    },
    {
      "type": "Feature",
      "geometry": {
        "type": "Point",
        "coordinates": [
          90.181776,
          25.521879
        ]
      },
      "properties": {
        "date": "2023-06-22",
        "name": "PA Sangma Stadium Landslide"
      }
    },
    {
      "type": "Feature",
      "geometry": {
        "type": "Point",
        "coordinates": [
          91.948666,
          25.687251
        ]
      },
      "properties": {
        "date": "2023-06-22",
        "name": "Umiam View Point Landslide"
      }
    },
    {
      "type": "Feature",
      "geometry": {
        "type": "Point",
        "coordinates": [
          92.361278,
          25.105701
        ]
      },
      "properties": {
        "date": "2023-06-23",
        "name": "Sonapur Tunnel Landslide"
      }
    },
    {
      "type": "Feature",
      "geometry": {
        "type": "Point",
        "coordinates": [
          92.36114,
          25.106073
        ]
      },
      "properties": {
        "date": "2023-07-03",
        "name": "Sonapur Tunnel Landslide"
      }
    },
    {
      "type": "Feature",
      "geometry": {
        "type": "Point",
        "coordinates": [
          92.360407,
          25.106083
        ]
      },
      "properties": {
        "date": "2023-08-04",
        "name": "Sonapur Tunnel Landslide"
      }
    },
    {
      "type": "Feature",
      "geometry": {
        "type": "Point",
        "coordinates": [
          92.36123,
          25.106699
        ]
      },
      "properties": {
        "date": "2023-08-10",
        "name": "Sonapur Tunnel Landslide"
      }
    },
    {
      "type": "Feature",
      "geometry": {
        "type": "Point",
        "coordinates": [
          92.360287,
          25.105957
        ]
      },
      "properties": {
        "date": "2023-08-26",
        "name": "Sonapur Tunnel Landslide"
      }
    },
    {
      "type": "Feature",
      "geometry": {
        "type": "Point",
        "coordinates": [
          91.615265,
          25.88385
        ]
      },
      "properties": {
        "date": "2023-09-26",
        "name": "Patharkhmah Landslide"
      }
    },
    {
      "type": "Feature",
      "geometry": {
        "type": "Point",
        "coordinates": [
          92.180176,
          25.390614
        ]
      },
      "properties": {
        "date": "2023-10-08",
        "name": "Pynthorlangtein Landslide"
      }
    },
    {
      "type": "Feature",
      "geometry": {
        "type": "Point",
        "coordinates": [
          93.550414,
          24.820487
        ]
      },
      "properties": {
        "date": "2023-08-16",
        "name": "Awangkhul Landslide"
      }
    },
    {
      "type": "Feature",
      "geometry": {
        "type": "Point",
        "coordinates": [
          93.477731,
          24.826582
        ]
      },
      "properties": {
        "date": "2023-08-16",
        "name": "Khongsang Landslide"
      }
    },
    {
      "type": "Feature",
      "geometry": {
        "type": "Point",
        "coordinates": [
          93.55041,
          24.820481
        ]
      },
      "properties": {
        "date": "2023-08-20",
        "name": "Awangkhul Landslide"
      }
    },
    {
      "type": "Feature",
      "geometry": {
        "type": "Point",
        "coordinates": [
          94.25992713,
          27.55468158
        ]
      },
      "properties": {
        "date": "2023-04-03",
        "name": "Subansiri Lower Hydroelectric Project"
      }
    },
    {
      "type": "Feature",
      "geometry": {
        "type": "Point",
        "coordinates": [
          91.719487,
          26.123803
        ]
      },
      "properties": {
        "date": "2023-06-17",
        "name": "Dhirenpara Landslide"
      }
    },
    {
      "type": "Feature",
      "geometry": {
        "type": "Point",
        "coordinates": [
          91.43331,
          25.894901
        ]
      },
      "properties": {
        "date": "2023-06-29",
        "name": "Joramhuria-Khokhapara Road Landslide"
      }
    },
    {
      "type": "Feature",
      "geometry": {
        "type": "Point",
        "coordinates": [
          93.038339,
          24.795353
        ]
      },
      "properties": {
        "date": "2023-08-21",
        "name": "Lalpani Landslide"
      }
    },
    {
      "type": "Feature",
      "geometry": {
        "type": "Point",
        "coordinates": [
          91.76544,
          26.19676
        ]
      },
      "properties": {
        "date": "2023-10-06",
        "name": "Kharguli Landslide"
      }
    },
    {
      "type": "Feature",
      "geometry": {
        "type": "Point",
        "coordinates": [
          91.793724,
          26.187105
        ]
      },
      "properties": {
        "date": "2023-10-06",
        "name": "Bamunimaidam Landslide"
      }
    },
    {
      "type": "Feature",
      "geometry": {
        "type": "Point",
        "coordinates": [
          91.798065,
          26.152334
        ]
      },
      "properties": {
        "date": "2023-10-07",
        "name": "Lechubagan Landslide"
      }
    },
    {
      "type": "Feature",
      "geometry": {
        "type": "Point",
        "coordinates": [
          91.75701,
          26.141897
        ]
      },
      "properties": {
        "date": "2023-10-07",
        "name": "Kahilipara Landslide"
      }
    },
    {
      "type": "Feature",
      "geometry": {
        "type": "Point",
        "coordinates": [
          88.52320007,
          27.39235464
        ]
      },
      "properties": {
        "date": "2023-03-26",
        "name": "Sokpay Landslide"
      }
    },
    {
      "type": "Feature",
      "geometry": {
        "type": "Point",
        "coordinates": [
          88.657305,
          27.613235
        ]
      },
      "properties": {
        "date": "2023-05-19",
        "name": "Chungthang Landslide"
      }
    },
    {
      "type": "Feature",
      "geometry": {
        "type": "Point",
        "coordinates": [
          88.64646,
          27.603889
        ]
      },
      "properties": {
        "date": "2023-06-16",
        "name": "Chungthang 2 Landslide"
      }
    },
    {
      "type": "Feature",
      "geometry": {
        "type": "Point",
        "coordinates": [
          88.250366,
          27.26933
        ]
      },
      "properties": {
        "date": "2023-06-18",
        "name": "Kalej Khola Landslide"
      }
    },
    {
      "type": "Feature",
      "geometry": {
        "type": "Point",
        "coordinates": [
          88.136778,
          27.254354
        ]
      },
      "properties": {
        "date": "2023-06-18",
        "name": "Dentam Landslide"
      }
    },
    {
      "type": "Feature",
      "geometry": {
        "type": "Point",
        "coordinates": [
          88.103311,
          27.142583
        ]
      },
      "properties": {
        "date": "2023-06-18",
        "name": "Lower Okhrey Landslide"
      }
    },
    {
      "type": "Feature",
      "geometry": {
        "type": "Point",
        "coordinates": [
          88.500328,
          27.535576
        ]
      },
      "properties": {
        "date": "2023-07-12",
        "name": "Lingzya Busty Landslide"
      }
    },
    {
      "type": "Feature",
      "geometry": {
        "type": "Point",
        "coordinates": [
          88.390868,
          27.299226
        ]
      },
      "properties": {
        "date": "2023-07-14",
        "name": "Rafung Khola Landslide"
      }
    },
    {
      "type": "Feature",
      "geometry": {
        "type": "Point",
        "coordinates": [
          88.728199,
          27.378152
        ]
      },
      "properties": {
        "date": "2023-07-14",
        "name": "9th Mile Landslide"
      }
    },
    {
      "type": "Feature",
      "geometry": {
        "type": "Point",
        "coordinates": [
          88.649425,
          27.565792
        ]
      },
      "properties": {
        "date": "2023-07-14",
        "name": "Theng Landslide"
      }
    },
    {
      "type": "Feature",
      "geometry": {
        "type": "Point",
        "coordinates": [
          88.55059,
          27.259994
        ]
      },
      "properties": {
        "date": "2023-08-04",
        "name": "32 No. Landslide"
      }
    },
    {
      "type": "Feature",
      "geometry": {
        "type": "Point",
        "coordinates": [
          88.550684,
          27.259936
        ]
      },
      "properties": {
        "date": "2023-08-24",
        "name": "32 No. Landslide"
      }
    },
    {
      "type": "Feature",
      "geometry": {
        "type": "Point",
        "coordinates": [
          88.08848,
          27.278215
        ]
      },
      "properties": {
        "date": "2023-08-25",
        "name": "Lingzing Landslide"
      }
    },
    {
      "type": "Feature",
      "geometry": {
        "type": "Point",
        "coordinates": [
          88.18362,
          27.912811
        ]
      },
      "properties": {
        "date": "2023-10-04",
        "name": "Lhonak Landslide"
      }
    },
    {
      "type": "Feature",
      "geometry": {
        "type": "Point",
        "coordinates": [
          91.62872,
          23.837263
        ]
      },
      "properties": {
        "date": "2023-03-31",
        "name": "Teliamura Landslide"
      }
    },
    {
      "type": "Feature",
      "geometry": {
        "type": "Point",
        "coordinates": [
          95.777581,
          28.233285
        ]
      },
      "properties": {
        "date": "2024-04-24",
        "name": "Hunli-Anini"
      }
    },
    {
      "type": "Feature",
      "geometry": {
        "type": "Point",
        "coordinates": [
          93.542196,
          27.78598
        ]
      },
      "properties": {
        "date": "2024-05-16",
        "name": "Pach Nallah"
      }
    },
    {
      "type": "Feature",
      "geometry": {
        "type": "Point",
        "coordinates": [
          94.910333,
          28.748529
        ]
      },
      "properties": {
        "date": "2024-06-15",
        "name": "Bomdo"
      }
    },
    {
      "type": "Feature",
      "geometry": {
        "type": "Point",
        "coordinates": [
          93.783419,
          27.121869
        ]
      },
      "properties": {
        "date": "2024-06-18",
        "name": "Karsingsa"
      }
    },
    {
      "type": "Feature",
      "geometry": {
        "type": "Point",
        "coordinates": [
          93.62708,
          27.099654
        ]
      },
      "properties": {
        "date": "2024-06-23",
        "name": "Itanagar"
      }
    },
    {
      "type": "Feature",
      "geometry": {
        "type": "Point",
        "coordinates": [
          95.746747,
          27.141177
        ]
      },
      "properties": {
        "date": "2024-06-16",
        "name": "Rangfra"
      }
    },
    {
      "type": "Feature",
      "geometry": {
        "type": "Point",
        "coordinates": [
          92.605617,
          27.03649
        ]
      },
      "properties": {
        "date": "2024-06-26",
        "name": "Tippi"
      }
    },
    {
      "type": "Feature",
      "geometry": {
        "type": "Point",
        "coordinates": [
          94.711676,
          27.923784
        ]
      },
      "properties": {
        "date": "2024-06-25",
        "name": "Siji"
      }
    },
    {
      "type": "Feature",
      "geometry": {
        "type": "Point",
        "coordinates": [
          94.883203,
          28.226541
        ]
      },
      "properties": {
        "date": "2024-06-29",
        "name": "Tarak"
      }
    },
    {
      "type": "Feature",
      "geometry": {
        "type": "Point",
        "coordinates": [
          93.6327,
          27.07383
        ]
      },
      "properties": {
        "date": "2024-06-29",
        "name": "Jullang"
      }
    },
    {
      "type": "Feature",
      "geometry": {
        "type": "Point",
        "coordinates": [
          94.361341,
          28.519848
        ]
      },
      "properties": {
        "date": "2024-06-29",
        "name": "Tatu"
      }
    },
    {
      "type": "Feature",
      "geometry": {
        "type": "Point",
        "coordinates": [
          96.374843,
          27.886843
        ]
      },
      "properties": {
        "date": "2024-06-29",
        "name": "Demwe"
      }
    },
    {
      "type": "Feature",
      "geometry": {
        "type": "Point",
        "coordinates": [
          96.565515,
          28.06798
        ]
      },
      "properties": {
        "date": "2024-06-29",
        "name": "Hayuliang"
      }
    },
    {
      "type": "Feature",
      "geometry": {
        "type": "Point",
        "coordinates": [
          92.958741,
          27.30978
        ]
      },
      "properties": {
        "date": "2024-06-30",
        "name": "Bana"
      }
    },
    {
      "type": "Feature",
      "geometry": {
        "type": "Point",
        "coordinates": [
          94.964479,
          28.676866
        ]
      },
      "properties": {
        "date": "2024-06-30",
        "name": "Jengging"
      }
    },
    {
      "type": "Feature",
      "geometry": {
        "type": "Point",
        "coordinates": [
          95.092954,
          28.142213
        ]
      },
      "properties": {
        "date": "2024-06-29",
        "name": "Babuk"
      }
    },
    {
      "type": "Feature",
      "geometry": {
        "type": "Point",
        "coordinates": [
          93.605705,
          27.090926
        ]
      },
      "properties": {
        "date": "2024-07-01",
        "name": "DivisionIV"
      }
    },
    {
      "type": "Feature",
      "geometry": {
        "type": "Point",
        "coordinates": [
          93.430041,
          27.895164
        ]
      },
      "properties": {
        "date": "2024-06-30",
        "name": "Rengchi"
      }
    },
    {
      "type": "Feature",
      "geometry": {
        "type": "Point",
        "coordinates": [
          93.591888,
          27.089317
        ]
      },
      "properties": {
        "date": "2024-07-01",
        "name": "Baat"
      }
    },
    {
      "type": "Feature",
      "geometry": {
        "type": "Point",
        "coordinates": [
          94.98636,
          28.233305
        ]
      },
      "properties": {
        "date": "2024-07-04",
        "name": "Pangin"
      }
    },
    {
      "type": "Feature",
      "geometry": {
        "type": "Point",
        "coordinates": [
          95.093074,
          28.142494
        ]
      },
      "properties": {
        "date": "2024-07-06",
        "name": "Babuk2"
      }
    },
    {
      "type": "Feature",
      "geometry": {
        "type": "Point",
        "coordinates": [
          93.783633,
          27.121839
        ]
      },
      "properties": {
        "date": "2024-07-05",
        "name": "Karsingsa"
      }
    },
    {
      "type": "Feature",
      "geometry": {
        "type": "Point",
        "coordinates": [
          94.316142,
          28.697524
        ]
      },
      "properties": {
        "date": "2024-07-05",
        "name": "ShiYomi"
      }
    },
    {
      "type": "Feature",
      "geometry": {
        "type": "Point",
        "coordinates": [
          96.439961,
          28.047143
        ]
      },
      "properties": {
        "date": "2024-07-05",
        "name": "Mompani"
      }
    },
    {
      "type": "Feature",
      "geometry": {
        "type": "Point",
        "coordinates": [
          93.636163,
          27.72775
        ]
      },
      "properties": {
        "date": "2024-07-05",
        "name": "Palin"
      }
    },
    {
      "type": "Feature",
      "geometry": {
        "type": "Point",
        "coordinates": [
          92.792901,
          27.307091
        ]
      },
      "properties": {
        "date": "2024-07-14",
        "name": "Palizi"
      }
    },
    {
      "type": "Feature",
      "geometry": {
        "type": "Point",
        "coordinates": [
          93.621829,
          27.031002
        ]
      },
      "properties": {
        "date": "2024-07-22",
        "name": "Holongi"
      }
    },
    {
      "type": "Feature",
      "geometry": {
        "type": "Point",
        "coordinates": [
          91.857654,
          27.611051
        ]
      },
      "properties": {
        "date": "2024-09-07",
        "name": "Bramadungchung"
      }
    },
    {
      "type": "Feature",
      "geometry": {
        "type": "Point",
        "coordinates": [
          92.562963,
          27.203922
        ]
      },
      "properties": {
        "date": "2024-10-04",
        "name": "Kaspi"
      }
    },
    {
      "type": "Feature",
      "geometry": {
        "type": "Point",
        "coordinates": [
          92.891914,
          25.109872
        ]
      },
      "properties": {
        "date": "2024-05-01",
        "name": "Jatinga"
      }
    },
    {
      "type": "Feature",
      "geometry": {
        "type": "Point",
        "coordinates": [
          92.76249,
          25.019471
        ]
      },
      "properties": {
        "date": "2024-05-03",
        "name": "Damcherra"
      }
    },
    {
      "type": "Feature",
      "geometry": {
        "type": "Point",
        "coordinates": [
          95.738226,
          27.282038
        ]
      },
      "properties": {
        "date": "2024-05-26",
        "name": "Tikok"
      }
    },
    {
      "type": "Feature",
      "geometry": {
        "type": "Point",
        "coordinates": [
          94.263033,
          27.532524
        ]
      },
      "properties": {
        "date": "2024-05-27",
        "name": "Subansiri"
      }
    },
    {
      "type": "Feature",
      "geometry": {
        "type": "Point",
        "coordinates": [
          91.747639,
          26.144954
        ]
      },
      "properties": {
        "date": "2024-05-29",
        "name": "KrishnaNagar"
      }
    },
    {
      "type": "Feature",
      "geometry": {
        "type": "Point",
        "coordinates": [
          91.71827,
          26.125215
        ]
      },
      "properties": {
        "date": "2024-06-03",
        "name": "Katahbari"
      }
    },
    {
      "type": "Feature",
      "geometry": {
        "type": "Point",
        "coordinates": [
          91.698208,
          26.160366
        ]
      },
      "properties": {
        "date": "2024-06-03",
        "name": "GramyaNagar"
      }
    },
    {
      "type": "Feature",
      "geometry": {
        "type": "Point",
        "coordinates": [
          93.116465,
          25.179895
        ]
      },
      "properties": {
        "date": "2024-05-30",
        "name": "Mahur"
      }
    },
    {
      "type": "Feature",
      "geometry": {
        "type": "Point",
        "coordinates": [
          93.01028,
          25.202045
        ]
      },
      "properties": {
        "date": "2024-05-30",
        "name": "Lungkhok"
      }
    },
    {
      "type": "Feature",
      "geometry": {
        "type": "Point",
        "coordinates": [
          93.020431,
          25.1934
        ]
      },
      "properties": {
        "date": "2024-05-30",
        "name": "Bethel"
      }
    },
    {
      "type": "Feature",
      "geometry": {
        "type": "Point",
        "coordinates": [
          91.775725,
          26.190964
        ]
      },
      "properties": {
        "date": "2024-05-30",
        "name": "RudraNagar"
      }
    },
    {
      "type": "Feature",
      "geometry": {
        "type": "Point",
        "coordinates": [
          92.523786,
          24.787043
        ]
      },
      "properties": {
        "date": "2024-06-19",
        "name": "Bendargool"
      }
    },
    {
      "type": "Feature",
      "geometry": {
        "type": "Point",
        "coordinates": [
          91.846223,
          26.111529
        ]
      },
      "properties": {
        "date": "2024-07-04",
        "name": "8thMile"
      }
    },
    {
      "type": "Feature",
      "geometry": {
        "type": "Point",
        "coordinates": [
          91.829241,
          26.179508
        ]
      },
      "properties": {
        "date": "2024-07-12",
        "name": "Bonda"
      }
    },
    {
      "type": "Feature",
      "geometry": {
        "type": "Point",
        "coordinates": [
          92.747317,
          25.006926
        ]
      },
      "properties": {
        "date": "2024-08-10",
        "name": "Damchera2"
      }
    },
    {
      "type": "Feature",
      "geometry": {
        "type": "Point",
        "coordinates": [
          94.27133,
          24.67507
        ]
      },
      "properties": {
        "date": "2024-05-27",
        "name": "Kasom"
      }
    },
    {
      "type": "Feature",
      "geometry": {
        "type": "Point",
        "coordinates": [
          93.7777,
          24.78167
        ]
      },
      "properties": {
        "date": "2024-05-28",
        "name": "Imphal"
      }
    },
    {
      "type": "Feature",
      "geometry": {
        "type": "Point",
        "coordinates": [
          93.97409,
          25.26763
        ]
      },
      "properties": {
        "date": "2024-05-28",
        "name": "Senapati"
      }
    },
    {
      "type": "Feature",
      "geometry": {
        "type": "Point",
        "coordinates": [
          94.21625,
          24.95445
        ]
      },
      "properties": {
        "date": "2024-07-02",
        "name": "MongkotChepu"
      }
    },
    {
      "type": "Feature",
      "geometry": {
        "type": "Point",
        "coordinates": [
          94.34178,
          25.06391
        ]
      },
      "properties": {
        "date": "2024-07-03",
        "name": "Kazipphung"
      }
    },
    {
      "type": "Feature",
      "geometry": {
        "type": "Point",
        "coordinates": [
          93.96529,
          25.13191
        ]
      },
      "properties": {
        "date": "2024-07-04",
        "name": "Kangpokpi"
      }
    },
    {
      "type": "Feature",
      "geometry": {
        "type": "Point",
        "coordinates": [
          93.49901,
          24.98131
        ]
      },
      "properties": {
        "date": "2024-07-29",
        "name": "Dimthanlong"
      }
    },
    {
      "type": "Feature",
      "geometry": {
        "type": "Point",
        "coordinates": [
          93.79057,
          24.7764
        ]
      },
      "properties": {
        "date": "2024-07-29",
        "name": "Sinam"
      }
    },
    {
      "type": "Feature",
      "geometry": {
        "type": "Point",
        "coordinates": [
          93.43601,
          24.76632
        ]
      },
      "properties": {
        "date": "2024-07-29",
        "name": "Rengpang"
      }
    },
    {
      "type": "Feature",
      "geometry": {
        "type": "Point",
        "coordinates": [
          93.46316,
          24.75121
        ]
      },
      "properties": {
        "date": "2024-07-29",
        "name": "Taodaijang"
      }
    },
    {
      "type": "Feature",
      "geometry": {
        "type": "Point",
        "coordinates": [
          93.83401,
          24.53455
        ]
      },
      "properties": {
        "date": "2024-08-01",
        "name": "Thanga1"
      }
    },
    {
      "type": "Feature",
      "geometry": {
        "type": "Point",
        "coordinates": [
          93.81729,
          24.52563
        ]
      },
      "properties": {
        "date": "2024-08-01",
        "name": "Thanga2"
      }
    },
    {
      "type": "Feature",
      "geometry": {
        "type": "Point",
        "coordinates": [
          93.81477,
          24.5226
        ]
      },
      "properties": {
        "date": "2024-08-01",
        "name": "ThangaNgaram"
      }
    },
    {
      "type": "Feature",
      "geometry": {
        "type": "Point",
        "coordinates": [
          93.919,
          24.73502
        ]
      },
      "properties": {
        "date": "2024-08-01",
        "name": "Oinam"
      }
    },
    {
      "type": "Feature",
      "geometry": {
        "type": "Point",
        "coordinates": [
          93.82001,
          24.52711
        ]
      },
      "properties": {
        "date": "2024-08-01",
        "name": "Heisnam"
      }
    },
    {
      "type": "Feature",
      "geometry": {
        "type": "Point",
        "coordinates": [
          93.13879,
          24.75096
        ]
      },
      "properties": {
        "date": "2024-08-06",
        "name": "Jiribam"
      }
    },
    {
      "type": "Feature",
      "geometry": {
        "type": "Point",
        "coordinates": [
          93.42788,
          24.75648
        ]
      },
      "properties": {
        "date": "2024-08-07",
        "name": "Nungba"
      }
    },
    {
      "type": "Feature",
      "geometry": {
        "type": "Point",
        "coordinates": [
          93.26164,
          24.72047
        ]
      },
      "properties": {
        "date": "2024-08-07",
        "name": "Kaimai"
      }
    },
    {
      "type": "Feature",
      "geometry": {
        "type": "Point",
        "coordinates": [
          94.35854,
          25.092
        ]
      },
      "properties": {
        "date": "2024-08-12",
        "name": "Hamleikhong"
      }
    },
    {
      "type": "Feature",
      "geometry": {
        "type": "Point",
        "coordinates": [
          93.73187,
          24.78893
        ]
      },
      "properties": {
        "date": "2024-08-18",
        "name": "KSinam2"
      }
    },
    {
      "type": "Feature",
      "geometry": {
        "type": "Point",
        "coordinates": [
          93.55647,
          24.81961
        ]
      },
      "properties": {
        "date": "2024-08-18",
        "name": "Awangkhul"
      }
    },
    {
      "type": "Feature",
      "geometry": {
        "type": "Point",
        "coordinates": [
          93.5706,
          24.83803
        ]
      },
      "properties": {
        "date": "2024-10-01",
        "name": "AwangkhulRangkhung"
      }
    },
    {
      "type": "Feature",
      "geometry": {
        "type": "Point",
        "coordinates": [
          92.36018,
          25.105844
        ]
      },
      "properties": {
        "date": "2024-02-03",
        "name": "SonapurTunnel1"
      }
    },
    {
      "type": "Feature",
      "geometry": {
        "type": "Point",
        "coordinates": [
          92.358006,
          25.102667
        ]
      },
      "properties": {
        "date": "2024-04-30",
        "name": "SonapurTunnel2"
      }
    },
    {
      "type": "Feature",
      "geometry": {
        "type": "Point",
        "coordinates": [
          91.856166,
          25.569287
        ]
      },
      "properties": {
        "date": "2024-05-16",
        "name": "ThirdMile"
      }
    },
    {
      "type": "Feature",
      "geometry": {
        "type": "Point",
        "coordinates": [
          91.856614,
          25.568237
        ]
      },
      "properties": {
        "date": "2024-05-16",
        "name": "Borma"
      }
    },
    {
      "type": "Feature",
      "geometry": {
        "type": "Point",
        "coordinates": [
          91.873806,
          25.568556
        ]
      },
      "properties": {
        "date": "2024-05-17",
        "name": "ShillongAssembly"
      }
    },
    {
      "type": "Feature",
      "geometry": {
        "type": "Point",
        "coordinates": [
          92.360977,
          25.106205
        ]
      },
      "properties": {
        "date": "2024-05-27",
        "name": "SonapurTunnel3"
      }
    },
    {
      "type": "Feature",
      "geometry": {
        "type": "Point",
        "coordinates": [
          91.614595,
          25.363389
        ]
      },
      "properties": {
        "date": "2024-05-28",
        "name": "Weilong"
      }
    },
    {
      "type": "Feature",
      "geometry": {
        "type": "Point",
        "coordinates": [
          91.893134,
          25.62836
        ]
      },
      "properties": {
        "date": "2024-05-28",
        "name": "Mawlai"
      }
    },
    {
      "type": "Feature",
      "geometry": {
        "type": "Point",
        "coordinates": [
          91.902597,
          25.625808
        ]
      },
      "properties": {
        "date": "2024-05-28",
        "name": "Mawkynroh"
      }
    },
    {
      "type": "Feature",
      "geometry": {
        "type": "Point",
        "coordinates": [
          91.751767,
          25.453314
        ]
      },
      "properties": {
        "date": "2024-05-28",
        "name": "Mawphland"
      }
    },
    {
      "type": "Feature",
      "geometry": {
        "type": "Point",
        "coordinates": [
          91.871489,
          25.567062
        ]
      },
      "properties": {
        "date": "2024-05-28",
        "name": "Rilbong"
      }
    },
    {
      "type": "Feature",
      "geometry": {
        "type": "Point",
        "coordinates": [
          91.881821,
          25.560962
        ]
      },
      "properties": {
        "date": "2024-05-28",
        "name": "Lumparing"
      }
    },
    {
      "type": "Feature",
      "geometry": {
        "type": "Point",
        "coordinates": [
          91.3896869,
          25.39192932
        ]
      },
      "properties": {
        "date": "2024-05-28",
        "name": "13KM"
      }
    },
    {
      "type": "Feature",
      "geometry": {
        "type": "Point",
        "coordinates": [
          91.748951,
          25.271534
        ]
      },
      "properties": {
        "date": "2024-05-30",
        "name": "Nongpriang"
      }
    },
    {
      "type": "Feature",
      "geometry": {
        "type": "Point",
        "coordinates": [
          92.368435,
          25.15457
        ]
      },
      "properties": {
        "date": "2024-05-30",
        "name": "Lumshnong1"
      }
    },
    {
      "type": "Feature",
      "geometry": {
        "type": "Point",
        "coordinates": [
          92.38607,
          25.162582
        ]
      },
      "properties": {
        "date": "2024-06-15",
        "name": "Lumshnong2"
      }
    },
    {
      "type": "Feature",
      "geometry": {
        "type": "Point",
        "coordinates": [
          91.866635,
          25.568354
        ]
      },
      "properties": {
        "date": "2024-06-15",
        "name": "Lummawbah"
      }
    },
    {
      "type": "Feature",
      "geometry": {
        "type": "Point",
        "coordinates": [
          91.433141,
          25.52819
        ]
      },
      "properties": {
        "date": "2024-06-17",
        "name": "Markasa"
      }
    },
    {
      "type": "Feature",
      "geometry": {
        "type": "Point",
        "coordinates": [
          91.874287,
          25.82781
        ]
      },
      "properties": {
        "date": "2024-06-14",
        "name": "RiPalei"
      }
    },
    {
      "type": "Feature",
      "geometry": {
        "type": "Point",
        "coordinates": [
          91.875187,
          25.800588
        ]
      },
      "properties": {
        "date": "2024-06-14",
        "name": "Umsamlem"
      }
    },
    {
      "type": "Feature",
      "geometry": {
        "type": "Point",
        "coordinates": [
          91.899853,
          25.679203
        ]
      },
      "properties": {
        "date": "2024-06-14",
        "name": "Umiam1"
      }
    },
    {
      "type": "Feature",
      "geometry": {
        "type": "Point",
        "coordinates": [
          91.466408,
          25.368971
        ]
      },
      "properties": {
        "date": "2024-06-15",
        "name": "Mawkyrwat"
      }
    },
    {
      "type": "Feature",
      "geometry": {
        "type": "Point",
        "coordinates": [
          91.236212,
          25.225818
        ]
      },
      "properties": {
        "date": "2024-06-15",
        "name": "Ranikor"
      }
    },
    {
      "type": "Feature",
      "geometry": {
        "type": "Point",
        "coordinates": [
          91.828582,
          25.518951
        ]
      },
      "properties": {
        "date": "2024-06-19",
        "name": "Pomlum"
      }
    },
    {
      "type": "Feature",
      "geometry": {
        "type": "Point",
        "coordinates": [
          92.220332,
          25.152774
        ]
      },
      "properties": {
        "date": "2024-06-17",
        "name": "Karkhana"
      }
    },
    {
      "type": "Feature",
      "geometry": {
        "type": "Point",
        "coordinates": [
          91.700373,
          25.510164
        ]
      },
      "properties": {
        "date": "2024-06-28",
        "name": "Sohiong"
      }
    },
    {
      "type": "Feature",
      "geometry": {
        "type": "Point",
        "coordinates": [
          91.903928,
          25.669593
        ]
      },
      "properties": {
        "date": "2024-06-30",
        "name": "Umiam2"
      }
    },
    {
      "type": "Feature",
      "geometry": {
        "type": "Point",
        "coordinates": [
          91.898077,
          25.653138
        ]
      },
      "properties": {
        "date": "2024-07-01",
        "name": "UmiamDam"
      }
    },
    {
      "type": "Feature",
      "geometry": {
        "type": "Point",
        "coordinates": [
          91.900697,
          25.682492
        ]
      },
      "properties": {
        "date": "2024-06-30",
        "name": "Umbang1"
      }
    },
    {
      "type": "Feature",
      "geometry": {
        "type": "Point",
        "coordinates": [
          91.897497,
          25.676048
        ]
      },
      "properties": {
        "date": "2024-06-30",
        "name": "NEPA"
      }
    },
    {
      "type": "Feature",
      "geometry": {
        "type": "Point",
        "coordinates": [
          91.898378,
          25.675099
        ]
      },
      "properties": {
        "date": "2024-06-30",
        "name": "Umiam3"
      }
    },
    {
      "type": "Feature",
      "geometry": {
        "type": "Point",
        "coordinates": [
          91.902376,
          25.686237
        ]
      },
      "properties": {
        "date": "2024-06-30",
        "name": "Umbang2"
      }
    },
    {
      "type": "Feature",
      "geometry": {
        "type": "Point",
        "coordinates": [
          91.903145,
          25.686801
        ]
      },
      "properties": {
        "date": "2024-06-30",
        "name": "Umbang3"
      }
    },
    {
      "type": "Feature",
      "geometry": {
        "type": "Point",
        "coordinates": [
          91.906341,
          25.692127
        ]
      },
      "properties": {
        "date": "2024-06-30",
        "name": "Sumer"
      }
    },
    {
      "type": "Feature",
      "geometry": {
        "type": "Point",
        "coordinates": [
          91.899541,
          25.67939
        ]
      },
      "properties": {
        "date": "2024-06-30",
        "name": "Umbang4"
      }
    },
    {
      "type": "Feature",
      "geometry": {
        "type": "Point",
        "coordinates": [
          91.271797,
          25.529008
        ]
      },
      "properties": {
        "date": "2024-07-02",
        "name": "Tiehsaw"
      }
    },
    {
      "type": "Feature",
      "geometry": {
        "type": "Point",
        "coordinates": [
          91.514339,
          25.466183
        ]
      },
      "properties": {
        "date": "2024-07-02",
        "name": "Pariong"
      }
    },
    {
      "type": "Feature",
      "geometry": {
        "type": "Point",
        "coordinates": [
          90.647418,
          25.193381
        ]
      },
      "properties": {
        "date": "2024-07-04",
        "name": "Baghmara1"
      }
    },
    {
      "type": "Feature",
      "geometry": {
        "type": "Point",
        "coordinates": [
          90.633676,
          25.210055
        ]
      },
      "properties": {
        "date": "2024-07-04",
        "name": "Baghmara2"
      }
    },
    {
      "type": "Feature",
      "geometry": {
        "type": "Point",
        "coordinates": [
          91.898983,
          25.649229
        ]
      },
      "properties": {
        "date": "2024-07-02",
        "name": "Umiam4"
      }
    },
    {
      "type": "Feature",
      "geometry": {
        "type": "Point",
        "coordinates": [
          91.898692,
          25.650726
        ]
      },
      "properties": {
        "date": "2024-07-02",
        "name": "Umiam5"
      }
    },
    {
      "type": "Feature",
      "geometry": {
        "type": "Point",
        "coordinates": [
          91.893994,
          25.651025
        ]
      },
      "properties": {
        "date": "2024-07-02",
        "name": "UmiamView"
      }
    },
    {
      "type": "Feature",
      "geometry": {
        "type": "Point",
        "coordinates": [
          91.889399,
          25.641388
        ]
      },
      "properties": {
        "date": "2024-07-02",
        "name": "Mawlai2"
      }
    },
    {
      "type": "Feature",
      "geometry": {
        "type": "Point",
        "coordinates": [
          91.889427,
          25.640973
        ]
      },
      "properties": {
        "date": "2024-07-02",
        "name": "Mawlai3"
      }
    },
    {
      "type": "Feature",
      "geometry": {
        "type": "Point",
        "coordinates": [
          92.362414,
          25.08048
        ]
      },
      "properties": {
        "date": "2024-07-12",
        "name": "Kuliang1"
      }
    },
    {
      "type": "Feature",
      "geometry": {
        "type": "Point",
        "coordinates": [
          90.193856,
          25.724652
        ]
      },
      "properties": {
        "date": "2024-07-13",
        "name": "Dadenggre"
      }
    },
    {
      "type": "Feature",
      "geometry": {
        "type": "Point",
        "coordinates": [
          91.875303,
          25.809077
        ]
      },
      "properties": {
        "date": "2024-07-14",
        "name": "Pahamrinai"
      }
    },
    {
      "type": "Feature",
      "geometry": {
        "type": "Point",
        "coordinates": [
          91.874717,
          25.781194
        ]
      },
      "properties": {
        "date": "2024-07-06",
        "name": "Umran"
      }
    },
    {
      "type": "Feature",
      "geometry": {
        "type": "Point",
        "coordinates": [
          91.869058,
          26.029622
        ]
      },
      "properties": {
        "date": "2024-07-18",
        "name": "Maupur"
      }
    },
    {
      "type": "Feature",
      "geometry": {
        "type": "Point",
        "coordinates": [
          92.362358,
          25.080525
        ]
      },
      "properties": {
        "date": "2024-08-06",
        "name": "Kuliang2"
      }
    },
    {
      "type": "Feature",
      "geometry": {
        "type": "Point",
        "coordinates": [
          92.361029,
          25.106369
        ]
      },
      "properties": {
        "date": "2024-08-06",
        "name": "SonapurTunnel4"
      }
    },
    {
      "type": "Feature",
      "geometry": {
        "type": "Point",
        "coordinates": [
          92.362247,
          25.080525
        ]
      },
      "properties": {
        "date": "2024-08-12",
        "name": "Kuliang3"
      }
    },
    {
      "type": "Feature",
      "geometry": {
        "type": "Point",
        "coordinates": [
          92.362123,
          25.080525
        ]
      },
      "properties": {
        "date": "2024-08-17",
        "name": "Kuliang4"
      }
    },
    {
      "type": "Feature",
      "geometry": {
        "type": "Point",
        "coordinates": [
          91.865183,
          25.951567
        ]
      },
      "properties": {
        "date": "2024-09-06",
        "name": "Shangbangla"
      }
    },
    {
      "type": "Feature",
      "geometry": {
        "type": "Point",
        "coordinates": [
          92.362183,
          25.080516
        ]
      },
      "properties": {
        "date": "2024-09-30",
        "name": "Kuliang5"
      }
    },
    {
      "type": "Feature",
      "geometry": {
        "type": "Point",
        "coordinates": [
          90.237665,
          25.267236
        ]
      },
      "properties": {
        "date": "2024-10-04",
        "name": "Koinadubi"
      }
    },
    {
      "type": "Feature",
      "geometry": {
        "type": "Point",
        "coordinates": [
          90.424197,
          25.236002
        ]
      },
      "properties": {
        "date": "2024-10-05",
        "name": "Attesia"
      }
    },
    {
      "type": "Feature",
      "geometry": {
        "type": "Point",
        "coordinates": [
          90.257292,
          25.599743
        ]
      },
      "properties": {
        "date": "2024-06-15",
        "name": "Rongram"
      }
    },
    {
      "type": "Feature",
      "geometry": {
        "type": "Point",
        "coordinates": [
          90.420247,
          25.556716
        ]
      },
      "properties": {
        "date": "2024-06-15",
        "name": "Mangrure1"
      }
    },
    {
      "type": "Feature",
      "geometry": {
        "type": "Point",
        "coordinates": [
          90.420122,
          25.556503
        ]
      },
      "properties": {
        "date": "2024-06-15",
        "name": "Mangrure2"
      }
    },
    {
      "type": "Feature",
      "geometry": {
        "type": "Point",
        "coordinates": [
          90.420051,
          25.556389
        ]
      },
      "properties": {
        "date": "2024-06-15",
        "name": "Mangrure3"
      }
    },
    {
      "type": "Feature",
      "geometry": {
        "type": "Point",
        "coordinates": [
          90.412596,
          25.549989
        ]
      },
      "properties": {
        "date": "2024-06-15",
        "name": "Simsang1"
      }
    },
    {
      "type": "Feature",
      "geometry": {
        "type": "Point",
        "coordinates": [
          90.412686,
          25.55002
        ]
      },
      "properties": {
        "date": "2024-06-15",
        "name": "Simsang2"
      }
    },
    {
      "type": "Feature",
      "geometry": {
        "type": "Point",
        "coordinates": [
          90.408643,
          25.549016
        ]
      },
      "properties": {
        "date": "2024-06-15",
        "name": "Simsang3"
      }
    },
    {
      "type": "Feature",
      "geometry": {
        "type": "Point",
        "coordinates": [
          90.385679,
          25.547884
        ]
      },
      "properties": {
        "date": "2024-06-15",
        "name": "Durakalakgre"
      }
    },
    {
      "type": "Feature",
      "geometry": {
        "type": "Point",
        "coordinates": [
          90.351459,
          25.561542
        ]
      },
      "properties": {
        "date": "2024-06-15",
        "name": "Matchurigre1"
      }
    },
    {
      "type": "Feature",
      "geometry": {
        "type": "Point",
        "coordinates": [
          90.351379,
          25.561887
        ]
      },
      "properties": {
        "date": "2024-06-15",
        "name": "Matchurigre2"
      }
    },
    {
      "type": "Feature",
      "geometry": {
        "type": "Point",
        "coordinates": [
          90.351379,
          25.561884
        ]
      },
      "properties": {
        "date": "2024-06-15",
        "name": "Matchurigre3"
      }
    },
    {
      "type": "Feature",
      "geometry": {
        "type": "Point",
        "coordinates": [
          90.349382,
          25.561705
        ]
      },
      "properties": {
        "date": "2024-06-15",
        "name": "Matchurigre4"
      }
    },
    {
      "type": "Feature",
      "geometry": {
        "type": "Point",
        "coordinates": [
          90.341414,
          25.557146
        ]
      },
      "properties": {
        "date": "2024-06-15",
        "name": "Matchurigre5"
      }
    },
    {
      "type": "Feature",
      "geometry": {
        "type": "Point",
        "coordinates": [
          90.341198,
          25.55621
        ]
      },
      "properties": {
        "date": "2024-06-15",
        "name": "Matchurigre6"
      }
    },
    {
      "type": "Feature",
      "geometry": {
        "type": "Point",
        "coordinates": [
          90.340616,
          25.555088
        ]
      },
      "properties": {
        "date": "2024-06-15",
        "name": "Matchurigre7"
      }
    },
    {
      "type": "Feature",
      "geometry": {
        "type": "Point",
        "coordinates": [
          90.236012,
          25.556378
        ]
      },
      "properties": {
        "date": "2024-06-15",
        "name": "Chasingre"
      }
    },
    {
      "type": "Feature",
      "geometry": {
        "type": "Point",
        "coordinates": [
          90.230769,
          25.545538
        ]
      },
      "properties": {
        "date": "2024-06-15",
        "name": "Rongkon"
      }
    },
    {
      "type": "Feature",
      "geometry": {
        "type": "Point",
        "coordinates": [
          90.204561,
          25.308286
        ]
      },
      "properties": {
        "date": "2024-06-15",
        "name": "Rengsipara1"
      }
    },
    {
      "type": "Feature",
      "geometry": {
        "type": "Point",
        "coordinates": [
          90.204644,
          25.308134
        ]
      },
      "properties": {
        "date": "2024-06-15",
        "name": "Rengsipara2"
      }
    },
    {
      "type": "Feature",
      "geometry": {
        "type": "Point",
        "coordinates": [
          90.220672,
          25.496547
        ]
      },
      "properties": {
        "date": "2024-06-15",
        "name": "Bolpuchring1"
      }
    },
    {
      "type": "Feature",
      "geometry": {
        "type": "Point",
        "coordinates": [
          90.221742,
          25.496702
        ]
      },
      "properties": {
        "date": "2024-06-15",
        "name": "Bolpuchring2"
      }
    },
    {
      "type": "Feature",
      "geometry": {
        "type": "Point",
        "coordinates": [
          90.222287,
          25.496123
        ]
      },
      "properties": {
        "date": "2024-06-15",
        "name": "Bolpuchring3"
      }
    },
    {
      "type": "Feature",
      "geometry": {
        "type": "Point",
        "coordinates": [
          90.223143,
          25.47651
        ]
      },
      "properties": {
        "date": "2024-06-15",
        "name": "Derengre"
      }
    },
    {
      "type": "Feature",
      "geometry": {
        "type": "Point",
        "coordinates": [
          90.220833,
          25.470969
        ]
      },
      "properties": {
        "date": "2024-06-15",
        "name": "Dinasagre1"
      }
    },
    {
      "type": "Feature",
      "geometry": {
        "type": "Point",
        "coordinates": [
          90.220708,
          25.469956
        ]
      },
      "properties": {
        "date": "2024-06-15",
        "name": "Dinasagre2"
      }
    },
    {
      "type": "Feature",
      "geometry": {
        "type": "Point",
        "coordinates": [
          90.223057,
          25.399736
        ]
      },
      "properties": {
        "date": "2024-06-15",
        "name": "Rongbretgre1"
      }
    },
    {
      "type": "Feature",
      "geometry": {
        "type": "Point",
        "coordinates": [
          90.226635,
          25.396902
        ]
      },
      "properties": {
        "date": "2024-06-15",
        "name": "Rongbretgre2"
      }
    },
    {
      "type": "Feature",
      "geometry": {
        "type": "Point",
        "coordinates": [
          90.22618,
          25.395992
        ]
      },
      "properties": {
        "date": "2024-06-15",
        "name": "Rongbretgre3"
      }
    },
    {
      "type": "Feature",
      "geometry": {
        "type": "Point",
        "coordinates": [
          90.225665,
          25.39366
        ]
      },
      "properties": {
        "date": "2024-06-15",
        "name": "Rongbretgre4"
      }
    },
    {
      "type": "Feature",
      "geometry": {
        "type": "Point",
        "coordinates": [
          90.222252,
          25.355696
        ]
      },
      "properties": {
        "date": "2024-06-15",
        "name": "Santogre1"
      }
    },
    {
      "type": "Feature",
      "geometry": {
        "type": "Point",
        "coordinates": [
          90.222034,
          25.355738
        ]
      },
      "properties": {
        "date": "2024-06-15",
        "name": "Santogre2"
      }
    },
    {
      "type": "Feature",
      "geometry": {
        "type": "Point",
        "coordinates": [
          90.203781,
          25.338717
        ]
      },
      "properties": {
        "date": "2024-06-15",
        "name": "Kherapara1"
      }
    },
    {
      "type": "Feature",
      "geometry": {
        "type": "Point",
        "coordinates": [
          90.205449,
          25.324709
        ]
      },
      "properties": {
        "date": "2024-06-15",
        "name": "Kherapara2"
      }
    },
    {
      "type": "Feature",
      "geometry": {
        "type": "Point",
        "coordinates": [
          90.205134,
          25.324395
        ]
      },
      "properties": {
        "date": "2024-06-15",
        "name": "Kherapara3"
      }
    },
    {
      "type": "Feature",
      "geometry": {
        "type": "Point",
        "coordinates": [
          90.205068,
          25.324305
        ]
      },
      "properties": {
        "date": "2024-06-15",
        "name": "Kherapara4"
      }
    },
    {
      "type": "Feature",
      "geometry": {
        "type": "Point",
        "coordinates": [
          90.200065,
          25.314873
        ]
      },
      "properties": {
        "date": "2024-06-15",
        "name": "Dopogre1"
      }
    },
    {
      "type": "Feature",
      "geometry": {
        "type": "Point",
        "coordinates": [
          90.200072,
          25.314952
        ]
      },
      "properties": {
        "date": "2024-06-15",
        "name": "Dopogre2"
      }
    },
    {
      "type": "Feature",
      "geometry": {
        "type": "Point",
        "coordinates": [
          92.71768,
          23.68059
        ]
      },
      "properties": {
        "date": "2024-05-28",
        "name": "Hlimen"
      }
    },
    {
      "type": "Feature",
      "geometry": {
        "type": "Point",
        "coordinates": [
          92.71425,
          23.74506
        ]
      },
      "properties": {
        "date": "2024-05-28",
        "name": "Hunthar"
      }
    },
    {
      "type": "Feature",
      "geometry": {
        "type": "Point",
        "coordinates": [
          92.7266,
          23.71769
        ]
      },
      "properties": {
        "date": "2024-05-28",
        "name": "Salem"
      }
    },
    {
      "type": "Feature",
      "geometry": {
        "type": "Point",
        "coordinates": [
          92.72635,
          23.62224
        ]
      },
      "properties": {
        "date": "2024-05-28",
        "name": "Falkawn"
      }
    },
    {
      "type": "Feature",
      "geometry": {
        "type": "Point",
        "coordinates": [
          92.68159,
          23.45122
        ]
      },
      "properties": {
        "date": "2024-05-28",
        "name": "Lungsei"
      }
    },
    {
      "type": "Feature",
      "geometry": {
        "type": "Point",
        "coordinates": [
          92.70656,
          23.55912
        ]
      },
      "properties": {
        "date": "2024-05-28",
        "name": "Aibawk"
      }
    },
    {
      "type": "Feature",
      "geometry": {
        "type": "Point",
        "coordinates": [
          92.27094,
          23.75095
        ]
      },
      "properties": {
        "date": "2024-06-11",
        "name": "Khantlang"
      }
    },
    {
      "type": "Feature",
      "geometry": {
        "type": "Point",
        "coordinates": [
          92.73935,
          23.75524
        ]
      },
      "properties": {
        "date": "2024-07-02",
        "name": "Zuangtui"
      }
    },
    {
      "type": "Feature",
      "geometry": {
        "type": "Point",
        "coordinates": [
          92.72946,
          23.75565
        ]
      },
      "properties": {
        "date": "2024-07-02",
        "name": "Bawngkawn"
      }
    },
    {
      "type": "Feature",
      "geometry": {
        "type": "Point",
        "coordinates": [
          92.7463,
          23.73397
        ]
      },
      "properties": {
        "date": "2024-07-02",
        "name": "Zemabawk"
      }
    },
    {
      "type": "Feature",
      "geometry": {
        "type": "Point",
        "coordinates": [
          92.73362,
          23.76229
        ]
      },
      "properties": {
        "date": "2024-07-02",
        "name": "Durtlang"
      }
    },
    {
      "type": "Feature",
      "geometry": {
        "type": "Point",
        "coordinates": [
          92.64393,
          23.99435
        ]
      },
      "properties": {
        "date": "2024-08-28",
        "name": "Kawnpui"
      }
    },
    {
      "type": "Feature",
      "geometry": {
        "type": "Point",
        "coordinates": [
          94.521634,
          26.006772
        ]
      },
      "properties": {
        "date": "2024-07-01",
        "name": "ZunhebotoDIET"
      }
    },
    {
      "type": "Feature",
      "geometry": {
        "type": "Point",
        "coordinates": [
          94.841673,
          26.185832
        ]
      },
      "properties": {
        "date": "2024-07-03",
        "name": "KWongthu"
      }
    },
    {
      "type": "Feature",
      "geometry": {
        "type": "Point",
        "coordinates": [
          94.746775,
          26.090935
        ]
      },
      "properties": {
        "date": "2024-07-05",
        "name": "Chessore"
      }
    },
    {
      "type": "Feature",
      "geometry": {
        "type": "Point",
        "coordinates": [
          94.12725,
          25.607096
        ]
      },
      "properties": {
        "date": "2024-07-12",
        "name": "SecaKhel"
      }
    },
    {
      "type": "Feature",
      "geometry": {
        "type": "Point",
        "coordinates": [
          94.531077,
          26.015899
        ]
      },
      "properties": {
        "date": "2024-07-07",
        "name": "Alahuto"
      }
    },
    {
      "type": "Feature",
      "geometry": {
        "type": "Point",
        "coordinates": [
          94.255575,
          26.107402
        ]
      },
      "properties": {
        "date": "2024-07-15",
        "name": "Wokha"
      }
    },
    {
      "type": "Feature",
      "geometry": {
        "type": "Point",
        "coordinates": [
          94.25861,
          26.09928
        ]
      },
      "properties": {
        "date": "2024-07-22",
        "name": "Tchuyiro"
      }
    },
    {
      "type": "Feature",
      "geometry": {
        "type": "Point",
        "coordinates": [
          94.246652,
          26.2956
        ]
      },
      "properties": {
        "date": "2024-07-22",
        "name": "Lakhuti"
      }
    },
    {
      "type": "Feature",
      "geometry": {
        "type": "Point",
        "coordinates": [
          94.103026,
          25.680683
        ]
      },
      "properties": {
        "date": "2024-07-26",
        "name": "Pezielietsie"
      }
    },